[
  {
    "id": "790",
    "title": "Vakcína Nemocnica Agel Bánovce",
    "longitude": "18.25625860",
    "latitude": "48.72012930",
    "city": "Bánovce nad Bebravou",
    "street_name": "Hviezdoslavova",
    "street_number": "23",
    "postal_code": "95701",
    "region_id": "8",
    "region_name": "Trenčiansky",
    "county_id": "33",
    "county_name": "Bánovce nad Bebravou"
  },
  {
    "id": "578",
    "title": "Vakcína FNsP Banská Bystrica (1)",
    "longitude": "19.11723449",
    "latitude": "48.74382603",
    "city": "Banská Bystrica",
    "street_name": "Námestie L. Svobodu",
    "street_number": "1",
    "postal_code": null,
    "region_id": null,
    "region_name": null,
    "county_id": null,
    "county_name": null
  },
  {
    "id": "747",
    "title": "Vakcína FNsP Banská Bystrica (2)",
    "longitude": "19.11723449",
    "latitude": "48.74382603",
    "city": "Banská Bystrica",
    "street_name": "Námestie L. Svobodu",
    "street_number": "1",
    "postal_code": null,
    "region_id": null,
    "region_name": null,
    "county_id": null,
    "county_name": null
  },
  {
    "id": "608",
    "title": "Vakcína NsP Bardejov",
    "longitude": "21.27236147",
    "latitude": "49.28777442",
    "city": "Bardejov",
    "street_name": "Sv. Jakuba",
    "street_number": "21",
    "postal_code": "08501",
    "region_id": "6",
    "region_name": "Prešovský",
    "county_id": "4",
    "county_name": "Bardejov"
  },
  {
    "id": "551",
    "title": "Vakcína NsP Prievidza so sídlom v Bojniciach",
    "longitude": "18.58916236",
    "latitude": "48.78545409",
    "city": "Bojnice",
    "street_name": "Nemocničná",
    "street_number": "2",
    "postal_code": "97201",
    "region_id": "8",
    "region_name": "Trenčiansky",
    "county_id": "52",
    "county_name": "Prievidza"
  },
  {
    "id": "798",
    "title": "Vakcína GPN s.r.o. (Sanatórium Koch), Bratislava",
    "longitude": "17.09492833",
    "latitude": "48.14673297",
    "city": "Bratislava",
    "street_name": "Partizánska",
    "street_number": "27",
    "postal_code": "81103",
    "region_id": "1",
    "region_name": "Bratislavský",
    "county_id": "56",
    "county_name": "Bratislava I"
  },
  {
    "id": "549",
    "title": "Vakcína UN Nemocnica sv. Michala, Bratislava",
    "longitude": "17.11732224",
    "latitude": "48.14638020",
    "city": "Bratislava",
    "street_name": "Satinského",
    "street_number": "1",
    "postal_code": "81108",
    "region_id": "1",
    "region_name": "Bratislavský",
    "county_id": "56",
    "county_name": "Bratislava I"
  },
  {
    "id": "571",
    "title": "Vakcína UNB Antolská, Bratislava",
    "longitude": "17.11849237",
    "latitude": "48.10124158",
    "city": "Bratislava",
    "street_name": "Antolská 11 - nemá bezbariérový",
    "street_number": "prístup",
    "postal_code": "85107",
    "region_id": "1",
    "region_name": "Bratislavský",
    "county_id": "57",
    "county_name": "Bratislava V"
  },
  {
    "id": "572",
    "title": "Vakcína UNB Kramáre, Bratislava",
    "longitude": "17.08774935",
    "latitude": "48.16771923",
    "city": "Bratislava",
    "street_name": "Limbová 5 - bezbariérový prístup s",
    "street_number": "problémami",
    "postal_code": null,
    "region_id": null,
    "region_name": null,
    "county_id": null,
    "county_name": null
  },
  {
    "id": "794",
    "title": "Vakcína UNB Mickiewiczova, Bratislava",
    "longitude": "17.11733370",
    "latitude": "48.15153150",
    "city": "Bratislava",
    "street_name": "Mickiewiczova 2247 - vchod zo strany Radlinského ulice od Blumentálu - nemá bezbariérový",
    "street_number": "prístup",
    "postal_code": "81107",
    "region_id": "1",
    "region_name": "Bratislavský",
    "county_id": "56",
    "county_name": "Bratislava I"
  },
  {
    "id": "573",
    "title": "Vakcína UNB Ružinov, Bratislava (1)",
    "longitude": "17.15194620",
    "latitude": "48.15541052",
    "city": "Bratislava",
    "street_name": "Ružinovská 6 - bezbariérový",
    "street_number": "prístup",
    "postal_code": null,
    "region_id": null,
    "region_name": null,
    "county_id": null,
    "county_name": null
  },
  {
    "id": "745",
    "title": "Vakcína UNB Ružinov, Bratislava (2)",
    "longitude": "17.15194620",
    "latitude": "48.15541052",
    "city": "Bratislava",
    "street_name": "Ružinovská 6 - bezbariérový",
    "street_number": "prístup",
    "postal_code": null,
    "region_id": null,
    "region_name": null,
    "county_id": null,
    "county_name": null
  },
  {
    "id": "779",
    "title": "Vakcína NsP Dunajská Streda",
    "longitude": "17.60970731",
    "latitude": "47.99896420",
    "city": "Dunajská Streda",
    "street_name": "Veľkoblahovská",
    "street_number": "23",
    "postal_code": "92901",
    "region_id": "2",
    "region_name": "Trnavský",
    "county_id": "19",
    "county_name": "Dunajská Streda"
  },
  {
    "id": "784",
    "title": "Vakcína NsP sv. Lukáša Galanta",
    "longitude": "17.72090871",
    "latitude": "48.19576488",
    "city": "Galanta",
    "street_name": "Hodská",
    "street_number": "38",
    "postal_code": null,
    "region_id": null,
    "region_name": null,
    "county_id": null,
    "county_name": null
  },
  {
    "id": "570",
    "title": "Vakcína Nemocnica Humenné",
    "longitude": "21.89922460",
    "latitude": "48.93406081",
    "city": "Humenné",
    "street_name": "Nemocničná",
    "street_number": "7",
    "postal_code": "06601",
    "region_id": "6",
    "region_name": "Prešovský",
    "county_id": "9",
    "county_name": "Humenné"
  },
  {
    "id": "545",
    "title": "Vakcína Nemocnica Komárno (1)",
    "longitude": "18.12610238",
    "latitude": "47.76461336",
    "city": "Komárno",
    "street_name": "Mederečská",
    "street_number": "39",
    "postal_code": "94505",
    "region_id": "3",
    "region_name": "Nitriansky",
    "county_id": "26",
    "county_name": "Komárno"
  },
  {
    "id": "763",
    "title": "Vakcína Nemocnica Komárno (2)",
    "longitude": "18.12610238",
    "latitude": "47.76461336",
    "city": "Komárno",
    "street_name": "Mederečská",
    "street_number": "39",
    "postal_code": "94505",
    "region_id": "3",
    "region_name": "Nitriansky",
    "county_id": "26",
    "county_name": "Komárno"
  },
  {
    "id": "792",
    "title": "Vakcína Nemocnica Komárno (3)",
    "longitude": "18.12610238",
    "latitude": "47.76461336",
    "city": "Komárno",
    "street_name": "Mederečská",
    "street_number": "39",
    "postal_code": "94505",
    "region_id": "3",
    "region_name": "Nitriansky",
    "county_id": "26",
    "county_name": "Komárno"
  },
  {
    "id": "603",
    "title": "Vakcína Nemocnica sv. Michala Košice",
    "longitude": "21.25624831",
    "latitude": "48.71804277",
    "city": "Košice",
    "street_name": "Murgašova",
    "street_number": "1",
    "postal_code": null,
    "region_id": null,
    "region_name": null,
    "county_id": null,
    "county_name": null
  },
  {
    "id": "598",
    "title": "Vakcína UNLP Košice (1)",
    "longitude": "21.25740696",
    "latitude": "48.70791482",
    "city": "Košice",
    "street_name": "Rastislavova",
    "street_number": "785/43",
    "postal_code": "04001",
    "region_id": "7",
    "region_name": "Košický",
    "county_id": "77",
    "county_name": "Košice I"
  },
  {
    "id": "746",
    "title": "Vakcína UNLP Košice (2)",
    "longitude": "21.25740696",
    "latitude": "48.70791482",
    "city": "Košice",
    "street_name": "Rastislavova",
    "street_number": "785/43",
    "postal_code": "04001",
    "region_id": "7",
    "region_name": "Košický",
    "county_id": "77",
    "county_name": "Košice I"
  },
  {
    "id": "788",
    "title": "Vakcína Železničné zdravotníctvo Košice 1",
    "longitude": "21.25909351",
    "latitude": "48.72815111",
    "city": "Košice",
    "street_name": "Masarykova",
    "street_number": "9",
    "postal_code": "04001",
    "region_id": "7",
    "region_name": "Košický",
    "county_id": "77",
    "county_name": "Košice I"
  },
  {
    "id": "789",
    "title": "Vakcína Železničné zdravotníctvo Košice 2",
    "longitude": "21.25909351",
    "latitude": "48.72815111",
    "city": "Košice",
    "street_name": "Masarykova",
    "street_number": "9",
    "postal_code": "04001",
    "region_id": "7",
    "region_name": "Košický",
    "county_id": "77",
    "county_name": "Košice I"
  },
  {
    "id": "600",
    "title": "Vakcína Nemocnica Levice",
    "longitude": "18.61471893",
    "latitude": "48.22305929",
    "city": "Levice",
    "street_name": "SNP",
    "street_number": "19",
    "postal_code": "93405",
    "region_id": "3",
    "region_name": "Nitriansky",
    "county_id": "28",
    "county_name": "Levice"
  },
  {
    "id": "607",
    "title": "Vakcína NsP Liptovský Mikuláš",
    "longitude": "19.59901223",
    "latitude": "49.08491845",
    "city": "Liptovský Mikuláš",
    "street_name": "Palučanská",
    "street_number": "25",
    "postal_code": "03101",
    "region_id": "4",
    "region_name": "Žilinský",
    "county_id": "44",
    "county_name": "Liptovský Mikuláš"
  },
  {
    "id": "547",
    "title": "Vakcína UN Martin",
    "longitude": "18.93152230",
    "latitude": "49.05827345",
    "city": "Martin",
    "street_name": "Sklabinská",
    "street_number": "26",
    "postal_code": "03601",
    "region_id": "4",
    "region_name": "Žilinský",
    "county_id": "41",
    "county_name": "Martin"
  },
  {
    "id": "604",
    "title": "Vakcína Nemocnica Michalovce",
    "longitude": "21.91451280",
    "latitude": "48.75685849",
    "city": "Michalovce",
    "street_name": "Duklianska",
    "street_number": "6",
    "postal_code": "07101",
    "region_id": "7",
    "region_name": "Košický",
    "county_id": "25",
    "county_name": "Michalovce"
  },
  {
    "id": "548",
    "title": "Vakcína FN Nitra (1)",
    "longitude": "18.08722904",
    "latitude": "48.30223664",
    "city": "Nitra",
    "street_name": "Špitálska",
    "street_number": "6",
    "postal_code": null,
    "region_id": null,
    "region_name": null,
    "county_id": null,
    "county_name": null
  },
  {
    "id": "741",
    "title": "Vakcína FN Nitra (2)",
    "longitude": "18.08722904",
    "latitude": "48.30223664",
    "city": "Nitra",
    "street_name": "Špitálska",
    "street_number": "6",
    "postal_code": null,
    "region_id": null,
    "region_name": null,
    "county_id": null,
    "county_name": null
  },
  {
    "id": "754",
    "title": "Vakcína FN Nitra (3)",
    "longitude": "18.08722904",
    "latitude": "48.30223664",
    "city": "Nitra",
    "street_name": "Špitálska",
    "street_number": "6",
    "postal_code": null,
    "region_id": null,
    "region_name": null,
    "county_id": null,
    "county_name": null
  },
  {
    "id": "786",
    "title": "Vakcína Nemocnica na okraji mesta Partizánske",
    "longitude": "18.40401501",
    "latitude": "48.63439797",
    "city": "Partizánske",
    "street_name": "Nová nemocnica",
    "street_number": "511",
    "postal_code": "95801",
    "region_id": "8",
    "region_name": "Trenčiansky",
    "county_id": "55",
    "county_name": "Partizánske"
  },
  {
    "id": "799",
    "title": "Vakcína Nemocnica Piešťany (1)",
    "longitude": "17.83520605",
    "latitude": "48.60376330",
    "city": "Piešťany",
    "street_name": "Winterova",
    "street_number": "66 1780",
    "postal_code": "92101",
    "region_id": "2",
    "region_name": "Trnavský",
    "county_id": "32",
    "county_name": "Piešťany"
  },
  {
    "id": "576",
    "title": "Vakcína Nemocnica Poprad (1)",
    "longitude": "20.30345491",
    "latitude": "49.05200528",
    "city": "Poprad",
    "street_name": "Banícka",
    "street_number": "28",
    "postal_code": null,
    "region_id": null,
    "region_name": null,
    "county_id": null,
    "county_name": null
  },
  {
    "id": "759",
    "title": "Vakcína Nemocnica Poprad (2)",
    "longitude": "20.30345491",
    "latitude": "49.05200528",
    "city": "Poprad",
    "street_name": "Banícka",
    "street_number": "28",
    "postal_code": null,
    "region_id": null,
    "region_name": null,
    "county_id": null,
    "county_name": null
  },
  {
    "id": "774",
    "title": "Vakcína NsP Považská Bystrica (1)",
    "longitude": "18.45795300",
    "latitude": "49.10635100",
    "city": "Považská Bystrica",
    "street_name": "Nemocničná",
    "street_number": "986",
    "postal_code": null,
    "region_id": null,
    "region_name": null,
    "county_id": null,
    "county_name": null
  },
  {
    "id": "775",
    "title": "Vakcína NsP Považská Bystrica (2)",
    "longitude": "18.45799578",
    "latitude": "49.10635100",
    "city": "Považská Bystrica",
    "street_name": "Nemocničná",
    "street_number": "986",
    "postal_code": null,
    "region_id": null,
    "region_name": null,
    "county_id": null,
    "county_name": null
  },
  {
    "id": "575",
    "title": "Vakcína FNsP Reimana Prešov",
    "longitude": "21.25371895",
    "latitude": "48.99655613",
    "city": "Prešov",
    "street_name": "Jana Holleho",
    "street_number": "5898/14",
    "postal_code": null,
    "region_id": null,
    "region_name": null,
    "county_id": null,
    "county_name": null
  },
  {
    "id": "787",
    "title": "Vakcína Svet zdravia,a,s, VN Rimavská Sobota",
    "longitude": "20.02561856",
    "latitude": "48.38324845",
    "city": "Rimavská Sobota",
    "street_name": "Šrobárova",
    "street_number": "1",
    "postal_code": null,
    "region_id": null,
    "region_name": null,
    "county_id": null,
    "county_name": null
  },
  {
    "id": "599",
    "title": "Vakcína - NsP Rožňava",
    "longitude": "20.53387111",
    "latitude": "48.66527883",
    "city": "Rožňava",
    "street_name": "Špitálska",
    "street_number": "1",
    "postal_code": "04801",
    "region_id": "7",
    "region_name": "Košický",
    "county_id": "13",
    "county_name": "Rožňava"
  },
  {
    "id": "569",
    "title": "Vakcína UV nemocnica SNP Ružomberok (1)",
    "longitude": "19.29896940",
    "latitude": "49.08560379",
    "city": "Ružomberok",
    "street_name": "COVID pavilón (bývalá poliklinika), Považská",
    "street_number": "12",
    "postal_code": null,
    "region_id": null,
    "region_name": null,
    "county_id": null,
    "county_name": null
  },
  {
    "id": "767",
    "title": "Vakcína UV nemocnica SNP Ružomberok (2)",
    "longitude": "19.29896940",
    "latitude": "49.08560379",
    "city": "Ružomberok",
    "street_name": "COVID pavilón (bývalá poliklinika), Považská",
    "street_number": "12",
    "postal_code": null,
    "region_id": null,
    "region_name": null,
    "county_id": null,
    "county_name": null
  },
  {
    "id": "552",
    "title": "Vakcína FNsP Skalica (1)",
    "longitude": "17.22706808",
    "latitude": "48.84409207",
    "city": "Skalica",
    "street_name": "Koreszkova",
    "street_number": "7",
    "postal_code": null,
    "region_id": null,
    "region_name": null,
    "county_id": null,
    "county_name": null
  },
  {
    "id": "773",
    "title": "Vakcína FNsP Skalica (2)",
    "longitude": "17.22706808",
    "latitude": "48.84409207",
    "city": "Skalica",
    "street_name": "Koreszkova",
    "street_number": "7",
    "postal_code": null,
    "region_id": null,
    "region_name": null,
    "county_id": null,
    "county_name": null
  },
  {
    "id": "776",
    "title": "Vakcína Spišská Nová Ves",
    "longitude": "20.56735391",
    "latitude": "48.95680954",
    "city": "Spišská Nová Ves",
    "street_name": "Janského",
    "street_number": "1",
    "postal_code": "05201",
    "region_id": "7",
    "region_name": "Košický",
    "county_id": "14",
    "county_name": "Spišská Nová Ves"
  },
  {
    "id": "765",
    "title": "Vakcína Nemocnica arm. generála L.Svobodu Svidník",
    "longitude": "21.56977337",
    "latitude": "49.31356925",
    "city": "Svidník",
    "street_name": "MUDr. Pribulu",
    "street_number": "412/4",
    "postal_code": "08901",
    "region_id": "6",
    "region_name": "Prešovský",
    "county_id": "42",
    "county_name": "Svidník"
  },
  {
    "id": "783",
    "title": "Vakcína Nemocnica Topoľčany",
    "longitude": "18.16798623",
    "latitude": "48.55234492",
    "city": "Topoľčany",
    "street_name": "Pavlovová",
    "street_number": "17",
    "postal_code": null,
    "region_id": null,
    "region_name": null,
    "county_id": null,
    "county_name": null
  },
  {
    "id": "785",
    "title": "Vakcína NsP Trebišov",
    "longitude": "21.71674625",
    "latitude": "48.61937474",
    "city": "Trebišov",
    "street_name": "SNP",
    "street_number": "76",
    "postal_code": "07501",
    "region_id": "7",
    "region_name": "Košický",
    "county_id": "20",
    "county_name": "Trebišov"
  },
  {
    "id": "372",
    "title": "Vakcína FN Trenčín (1)",
    "longitude": "18.03178960",
    "latitude": "48.88454416",
    "city": "Trenčín",
    "street_name": "Legionárska",
    "street_number": "28",
    "postal_code": "91101",
    "region_id": "8",
    "region_name": "Trenčiansky",
    "county_id": "8",
    "county_name": "Trenčín"
  },
  {
    "id": "769",
    "title": "Vakcína FN Trenčín (2)",
    "longitude": "18.03178960",
    "latitude": "48.88454416",
    "city": "Trenčín",
    "street_name": "Legionárska",
    "street_number": "28",
    "postal_code": "91101",
    "region_id": "8",
    "region_name": "Trenčiansky",
    "county_id": "8",
    "county_name": "Trenčín"
  },
  {
    "id": "546",
    "title": "Vakcína FN Trnava 1 - Starý areál",
    "longitude": "17.58832477",
    "latitude": "48.36856870",
    "city": "Trnava",
    "street_name": "A. Žarnova",
    "street_number": "11",
    "postal_code": null,
    "region_id": null,
    "region_name": null,
    "county_id": null,
    "county_name": null
  },
  {
    "id": "781",
    "title": "Vakcína FN Trnava 2 - Nový areál",
    "longitude": "17.58832477",
    "latitude": "48.36856870",
    "city": "Trnava",
    "street_name": "A. Žarnova",
    "street_number": "11",
    "postal_code": null,
    "region_id": null,
    "region_name": null,
    "county_id": null,
    "county_name": null
  },
  {
    "id": "780",
    "title": "Vakcína Vranovská nemocnica",
    "longitude": "21.69159081",
    "latitude": "48.88557980",
    "city": "Vranov nad Topľou",
    "street_name": "M. R. Štefánika",
    "street_number": "187/177B",
    "postal_code": null,
    "region_id": null,
    "region_name": null,
    "county_id": null,
    "county_name": null
  },
  {
    "id": "777",
    "title": "Vakcína Všeobecná nemocnica Žiar nad Hronom",
    "longitude": "18.84257736",
    "latitude": "48.59044558",
    "city": "Žiar nad Hronom",
    "street_name": "Sládkovičova",
    "street_number": "11",
    "postal_code": "96501",
    "region_id": "5",
    "region_name": "Banskobystrický",
    "county_id": "34",
    "county_name": "Žiar nad Hronom"
  },
  {
    "id": "550",
    "title": "Vakcína FNsP Žilina (1)",
    "longitude": "18.74574063",
    "latitude": "49.21883148",
    "city": "Žilina",
    "street_name": "ul.Vojtecha Spanyola",
    "street_number": "43",
    "postal_code": null,
    "region_id": null,
    "region_name": null,
    "county_id": null,
    "county_name": null
  },
  {
    "id": "756",
    "title": "Vakcína FNsP Žilina (2)",
    "longitude": "18.74574063",
    "latitude": "49.21883148",
    "city": "Žilina",
    "street_name": "ul.Vojtecha Spanyola",
    "street_number": "43",
    "postal_code": null,
    "region_id": null,
    "region_name": null,
    "county_id": null,
    "county_name": null
  },
  {
    "id": "757",
    "title": "Vakcína FNsP Žilina (3)",
    "longitude": "18.74574063",
    "latitude": "49.21883148",
    "city": "Žilina",
    "street_name": "ul.Vojtecha Spanyola",
    "street_number": "43",
    "postal_code": null,
    "region_id": null,
    "region_name": null,
    "county_id": null,
    "county_name": null
  },
  {
    "id": "772",
    "title": "Vakcína FNsP Žilina (4)",
    "longitude": "18.74574063",
    "latitude": "49.21883148",
    "city": "Žilina",
    "street_name": "ul.Vojtecha Spanyola",
    "street_number": "43",
    "postal_code": null,
    "region_id": null,
    "region_name": null,
    "county_id": null,
    "county_name": null
  }
]